{"type": "FeatureCollection", "features": [{"geometry": null, "properties": {"province": "US-AR", "marker-color": "#ff2600", "title": "Parking Deck 1 Entrance", "country": "US", "locality": "Little Rock", "address": "4301 W Markham St, Little Rock, AR, 72205", "marker-size": "medium"}, "type": "Feature", "id": "43a8a751-1a0e-11eb-8ed5-d0817ad9c765", "feature_type": "address"}, {"geometry": null, "properties": {"province": "US-AR", "marker-color": "#ff2600", "title": "Parking Deck 2 Entrance", "country": "US", "locality": "Little Rock", "address": "4301 West Markham Street, Little Rock, AR 72205", "marker-size": "medium"}, "type": "Feature", "id": "43ab2054-1a0e-11eb-bfa6-d0817ad9c765", "feature_type": "address"}, {"geometry": null, "properties": {"province": "US-AR", "marker-color": "#ff2600", "title": "Parking Deck 3 Entrance", "country": "US", "locality": "Little Rock", "address": "4030 W Capitol Ave, Little Rock, AR 72205", "marker-size": "medium"}, "type": "Feature", "id": "43ab211c-1a0e-11eb-8824-d0817ad9c765", "feature_type": "address"}, {"geometry": null, "properties": {"province": "US-AR", "marker-color": "#ff2600", "title": "Outpatient Valet Parking", "country": "US", "locality": "Little Rock", "address": "4110 Outpatient Cir #2508, Little Rock, AR 72205", "marker-size": "medium"}, "type": "Feature", "id": "43ab21c5-1a0e-11eb-b8db-d0817ad9c765", "feature_type": "address"}, {"geometry": null, "properties": {"province": "US-AR", "marker-color": "#ff2600", "title": "Stephens Institute Valet Parking", "country": "US", "locality": "Little Rock", "address": "501 Jack Stephens Drive, Little Rock, AR 72205", "marker-size": "medium"}, "type": "Feature", "id": "43ab2285-1a0e-11eb-9a45-d0817ad9c765", "feature_type": "address"}, {"geometry": null, "properties": {"province": "US-AR", "marker-color": "#ff2600", "title": "UAMS Cafeteria", "country": "US", "locality": "Little Rock", "address": "34.74888396824228, -92.32034410815686", "marker-size": "medium"}, "type": "Feature", "id": "43ab232e-1a0e-11eb-9deb-d0817ad9c765", "feature_type": "address"}, {"geometry": null, "properties": {"province": "US-AR", "marker-color": "#ff2600", "title": "Lobby Caf\u00e9", "country": "US", "locality": "Little Rock", "address": "34.7481478761888, -92.3207464395091", "marker-size": "medium"}, "type": "Feature", "id": "43ab23cc-1a0e-11eb-a96e-d0817ad9c765", "feature_type": "address"}, {"geometry": null, "properties": {"province": "US-AR", "marker-color": "#ff2600", "title": "Metro Deli 2", "country": "US", "locality": "Little Rock", "address": "34.75029883334681, -92.32105757575482", "marker-size": "medium"}, "type": "Feature", "id": "43ab2463-1a0e-11eb-8f41-d0817ad9c765", "feature_type": "address"}, {"geometry": null, "properties": {"province": "US-AR", "marker-color": "#ff2600", "title": "The Atrium \u2013 Outpatient Center", "country": "US", "locality": "Little Rock", "address": "34.747887818146616, -92.31942679267377", "marker-size": "medium"}, "type": "Feature", "id": "43ab2502-1a0e-11eb-89d0-d0817ad9c765", "feature_type": "address"}, {"geometry": null, "properties": {"province": "US-AR", "marker-color": "#ff2600", "title": "The Gathering Place", "country": "US", "locality": "Little Rock", "address": "34.748220294218726, -92.31920150807127", "marker-size": "medium"}, "type": "Feature", "id": "43ab25fd-1a0e-11eb-9ffb-d0817ad9c765", "feature_type": "address"}, {"geometry": null, "properties": {"province": "US-AR", "marker-color": "#ff2600", "title": "Doc Java", "country": "US", "locality": "Little Rock", "address": "34.74901588973549, -92.3205922334455", "marker-size": "medium"}, "type": "Feature", "id": "43ab269e-1a0e-11eb-80a2-d0817ad9c765", "feature_type": "address"}, {"geometry": null, "properties": {"province": "US-AR", "marker-color": "#ff2600", "title": "Generations Cafe \u2013 Institute on Aging", "country": "US", "locality": "Little Rock", "address": "629 Jack Stephens Drive, Little Rock, AR, United States", "marker-size": "medium"}, "type": "Feature", "id": "43ab275c-1a0e-11eb-bf18-d0817ad9c765", "feature_type": "address"}, {"geometry": null, "properties": {"province": "US-AR", "marker-color": "#ff2600", "title": "Administration West (ADMINW)", "country": "US", "locality": "Little Rock", "address": "300 Hooper Drive, Little Rock, AR, United States", "marker-size": "medium"}, "type": "Feature", "id": "43ab27f3-1a0e-11eb-9334-d0817ad9c765", "feature_type": "address"}, {"geometry": null, "properties": {"province": "US-AR", "marker-color": "#ff2600", "title": "Barton Research (BART)", "country": "US", "locality": "Little Rock", "address": "4105 Delivery Drive, Little Rock, AR, United States", "marker-size": "medium"}, "type": "Feature", "id": "43ab2887-1a0e-11eb-b66c-d0817ad9c765", "feature_type": "address"}, {"geometry": null, "properties": {"province": "US-AR", "marker-color": "#ff2600", "title": "Biomedical Research Center I (BMR1)", "country": "US", "locality": "Little Rock", "address": "325 Jack Stephens Drive, Little Rock, AR, United States", "marker-size": "medium"}, "type": "Feature", "id": "43ab293a-1a0e-11eb-b015-d0817ad9c765", "feature_type": "address"}, {"geometry": null, "properties": {"province": "US-AR", "marker-color": "#ff2600", "title": "Biomedical Research Center II (BMR2)", "country": "US", "locality": "Little Rock", "address": "200 South Cedar Street, Little Rock, AR, United States", "marker-size": "medium"}, "type": "Feature", "id": "43ab29e3-1a0e-11eb-b0f2-d0817ad9c765", "feature_type": "address"}, {"geometry": null, "properties": {"province": "US-AR", "marker-color": "#ff2600", "title": "Bioventures (BVENT)", "country": "US", "locality": "Little Rock", "address": "401 South Cedar Street, Little Rock, AR, United States", "marker-size": "medium"}, "type": "Feature", "id": "43ab2a87-1a0e-11eb-99ab-d0817ad9c765", "feature_type": "address"}, {"geometry": null, "properties": {"province": "US-AR", "marker-color": "#ff2600", "title": "Boiler House (BH)", "country": "US", "locality": "Little Rock", "address": "4100 Delivery Drive, Little Rock, AR, United States", "marker-size": "medium"}, "type": "Feature", "id": "43ab2b42-1a0e-11eb-83ea-d0817ad9c765", "feature_type": "address"}, {"geometry": null, "properties": {"province": "US-AR", "marker-color": "#ff2600", "title": "Central Building (CENT)", "country": "US", "locality": "Little Rock", "address": "34.74930235596429, -92.32040030881763", "marker-size": "medium"}, "type": "Feature", "id": "43ab2be3-1a0e-11eb-8cfd-d0817ad9c765", "feature_type": "address"}, {"geometry": null, "properties": {"province": "US-AR", "marker-color": "#ff2600", "title": "College of Public Health (COPH)", "country": "US", "locality": "Little Rock", "address": "34.750288434066526, -92.32074371539056", "marker-size": "medium"}, "type": "Feature", "id": "43ab2c8f-1a0e-11eb-a7c7-d0817ad9c765", "feature_type": "address"}, {"geometry": null, "properties": {"province": "US-AR", "marker-color": "#ff2600", "title": "Computer Building (COMP)", "country": "US", "locality": "Little Rock", "address": "4105 Ambulance Drive, Little Rock, AR, United States", "marker-size": "medium"}, "type": "Feature", "id": "43ab2d38-1a0e-11eb-b78d-d0817ad9c765", "feature_type": "address"}, {"geometry": null, "properties": {"province": "US-AR", "marker-color": "#ff2600", "title": "Cottage 3 (C3)", "country": "US", "locality": "Little Rock", "address": "810 Cottage Drive, Little Rock, AR, United States", "marker-size": "medium"}, "type": "Feature", "id": "43ab2dcf-1a0e-11eb-8e18-d0817ad9c765", "feature_type": "address"}, {"geometry": null, "properties": {"province": "US-AR", "marker-color": "#ff2600", "title": "Ear Nose Throat (ENT)", "country": "US", "locality": "Little Rock", "address": "4001 West Capitol Avenue, Little Rock, AR, United States", "marker-size": "medium"}, "type": "Feature", "id": "43ab2e78-1a0e-11eb-b1c6-d0817ad9c765", "feature_type": "address"}, {"geometry": null, "properties": {"province": "US-AR", "marker-color": "#ff2600", "title": "12th St. Clinic", "country": "US", "locality": "Little Rock", "address": "4010 West 12th Street, Little Rock, AR, United States", "marker-size": "medium"}, "type": "Feature", "id": "43ab2f0c-1a0e-11eb-824e-d0817ad9c765", "feature_type": "address"}, {"geometry": null, "properties": {"province": "US-AR", "marker-color": "#ff2600", "title": "Distribution Center (DIST)", "country": "US", "locality": "Little Rock", "address": "34.7451769948898, -92.3243137774989", "marker-size": "medium"}, "type": "Feature", "id": "43ab2fb5-1a0e-11eb-9461-d0817ad9c765", "feature_type": "address"}, {"geometry": null, "properties": {"province": "US-AR", "marker-color": "#ff2600", "title": "Donald W. Reynolds Institute on Aging (RIOA)", "country": "US", "locality": "Little Rock", "address": "629 Jack Stephens Drive, Little Rock, AR, United States", "marker-size": "medium"}, "type": "Feature", "id": "43ab3063-1a0e-11eb-ad48-d0817ad9c765", "feature_type": "address"}, {"geometry": null, "properties": {"province": "US-AR", "marker-color": "#ff2600", "title": "Education II (EDII)\u00a0", "country": "US", "locality": "Little Rock", "address": "34.74958320829484, -92.32081881724298", "marker-size": "medium"}, "type": "Feature", "id": "43ab3102-1a0e-11eb-9a70-d0817ad9c765", "feature_type": "address"}, {"geometry": null, "properties": {"province": "US-AR", "marker-color": "#ff2600", "title": "Education Building South (EDS)", "country": "US", "locality": "Little Rock", "address": "4021 West 8th Street, Little Rock, AR, United States", "marker-size": "medium"}, "type": "Feature", "id": "43ab31a1-1a0e-11eb-a217-d0817ad9c765", "feature_type": "address"}, {"geometry": null, "properties": {"province": "US-AR", "marker-color": "#ff2600", "title": "Family Medical Center (FMC)", "country": "US", "locality": "Little Rock", "address": "521 Jack Stephens Drive, Little Rock, AR, United States", "marker-size": "medium"}, "type": "Feature", "id": "43ab3254-1a0e-11eb-8980-d0817ad9c765", "feature_type": "address"}, {"geometry": null, "properties": {"province": "US-AR", "marker-color": "#ff2600", "title": "Freeway Medical Tower (FWAY)", "country": "US", "locality": "Little Rock", "address": "West 10th Street, Little Rock, AR, United States", "marker-size": "medium"}, "type": "Feature", "id": "43ab32f5-1a0e-11eb-9030-d0817ad9c765", "feature_type": "address"}, {"geometry": null, "properties": {"province": "US-AR", "marker-color": "#ff2600", "title": "Harvey and Bernice Jones Eye Institute (JEI)", "country": "US", "locality": "Little Rock", "address": "34.747709303253906, -92.31913443189114", "marker-size": "medium"}, "type": "Feature", "id": "43ab338a-1a0e-11eb-8cd5-d0817ad9c765", "feature_type": "address"}, {"geometry": null, "properties": {"province": "US-AR", "marker-color": "#ff2600", "title": "Hospital (HOSP)", "country": "US", "locality": "Little Rock", "address": "4200 Shuffield Drive, Little Rock, AR, United States", "marker-size": "medium"}, "type": "Feature", "id": "43ab3435-1a0e-11eb-b2ec-d0817ad9c765", "feature_type": "address"}, {"geometry": null, "properties": {"province": "US-AR", "marker-color": "#ff2600", "title": "I. Dodd Wilson Education Building (IDW)", "country": "US", "locality": "Little Rock", "address": "34.75044270140138, -92.32174686156213", "marker-size": "medium"}, "type": "Feature", "id": "43ab34cc-1a0e-11eb-b3bd-d0817ad9c765", "feature_type": "address"}, {"geometry": null, "properties": {"province": "US-AR", "marker-color": "#ff2600", "title": "Jackson T. Stephens Spine Institute (JTSSI)", "country": "US", "locality": "Little Rock", "address": "501 Jack Stephens Drive, Little Rock, AR, United States", "marker-size": "medium"}, "type": "Feature", "id": "43ab3575-1a0e-11eb-82e2-d0817ad9c765", "feature_type": "address"}, {"geometry": null, "properties": {"province": "US-AR", "marker-color": "#ff2600", "title": "Magnetic Resonance Imaging (MRI)", "country": "US", "locality": "Little Rock", "address": "4108 Dwyer Drive, Little Rock, AR, United States", "marker-size": "medium"}, "type": "Feature", "id": "43ab362b-1a0e-11eb-803e-d0817ad9c765", "feature_type": "address"}, {"geometry": null, "properties": {"province": "US-AR", "marker-color": "#ff2600", "title": "Mediplex Apartments (1 unit) (MEDPX)", "country": "US", "locality": "Little Rock", "address": "227 Jack Stephens Drive, Little Rock, AR, United States", "marker-size": "medium"}, "type": "Feature", "id": "43ab36de-1a0e-11eb-ac05-d0817ad9c765", "feature_type": "address"}, {"geometry": null, "properties": {"province": "US-AR", "marker-color": "#ff2600", "title": "Outpatient Center (OPC)", "country": "US", "locality": "Little Rock", "address": "4110 Outpatient Circle, Little Rock, AR, United States", "marker-size": "medium"}, "type": "Feature", "id": "43ab3787-1a0e-11eb-bd5d-d0817ad9c765", "feature_type": "address"}, {"geometry": null, "properties": {"province": "US-AR", "marker-color": "#ff2600", "title": "Outpatient Diagnostic Center (OPDC)", "country": "US", "locality": "Little Rock", "address": "4110 Outpatient Circle, Little Rock, AR, United States", "marker-size": "medium"}, "type": "Feature", "id": "43ab3826-1a0e-11eb-bcc9-d0817ad9c765", "feature_type": "address"}, {"geometry": null, "properties": {"province": "US-AR", "marker-color": "#ff2600", "title": "Paint Shop & Flammable Storage (PAINT)", "country": "US", "locality": "Little Rock", "address": "218 Jack Stephens Drive, Little Rock, AR, United States", "marker-size": "medium"}, "type": "Feature", "id": "43ab38d1-1a0e-11eb-a564-d0817ad9c765", "feature_type": "address"}, {"geometry": null, "properties": {"province": "US-AR", "marker-color": "#ff2600", "title": "PET (PET)", "country": "US", "locality": "Little Rock", "address": "4111 Dwyer Drive, Little Rock, AR, United States", "marker-size": "medium"}, "type": "Feature", "id": "43ab397a-1a0e-11eb-a44f-d0817ad9c765", "feature_type": "address"}, {"geometry": null, "properties": {"province": "US-AR", "marker-color": "#ff2600", "title": "Physical Plant (PP)", "country": "US", "locality": "Little Rock", "address": "4110 Delivery Drive, Little Rock, AR, United States", "marker-size": "medium"}, "type": "Feature", "id": "43ab3a11-1a0e-11eb-a79e-d0817ad9c765", "feature_type": "address"}, {"geometry": null, "properties": {"province": "US-AR", "marker-color": "#ff2600", "title": "Psychiatric Research Institute (PRI)", "country": "US", "locality": "Little Rock", "address": "34.74800021621447, -92.32203389983624", "marker-size": "medium"}, "type": "Feature", "id": "43ab3aa8-1a0e-11eb-86b7-d0817ad9c765", "feature_type": "address"}, {"geometry": null, "properties": {"province": "US-AR", "marker-color": "#ff2600", "title": "Radiation Oncology [ROC] (RADONC)", "country": "US", "locality": "Little Rock", "address": "4130 Shuffield Drive, Little Rock, AR, United States", "marker-size": "medium"}, "type": "Feature", "id": "43ab3b66-1a0e-11eb-b1b2-d0817ad9c765", "feature_type": "address"}, {"geometry": null, "properties": {"province": "US-AR", "marker-color": "#ff2600", "title": "Residence Hall Complex (RHC)", "country": "US", "locality": "Little Rock", "address": "4601 West Markham Street, Little Rock, AR, United States", "marker-size": "medium"}, "type": "Feature", "id": "43ab3bfa-1a0e-11eb-8382-d0817ad9c765", "feature_type": "address"}, {"geometry": null, "properties": {"province": "US-AR", "marker-color": "#ff2600", "title": "Ricks Armory", "country": "US", "locality": "Little Rock", "address": "4700 West 8th Street, Little Rock, AR, United States", "marker-size": "medium"}, "type": "Feature", "id": "43ab3c91-1a0e-11eb-828b-d0817ad9c765", "feature_type": "address"}, {"geometry": null, "properties": {"province": "US-AR", "marker-color": "#ff2600", "title": "Walker Annex (ANNEX)", "country": "US", "locality": "Little Rock", "address": "4121 Dwyer Drive, Little Rock, AR, United States", "marker-size": "medium"}, "type": "Feature", "id": "43ab3d3d-1a0e-11eb-a4aa-d0817ad9c765", "feature_type": "address"}, {"geometry": null, "properties": {"province": "US-AR", "marker-color": "#ff2600", "title": "Ward Tower (WARD)", "country": "US", "locality": "Little Rock", "address": "401 Hooper Drive, Little Rock, AR, United States", "marker-size": "medium"}, "type": "Feature", "id": "43ab3dd1-1a0e-11eb-9123-d0817ad9c765", "feature_type": "address"}, {"geometry": null, "properties": {"province": "US-AR", "marker-color": "#ff2600", "title": "West Central Energy Plant (WCEP)", "country": "US", "locality": "Little Rock", "address": "4501 West 7th Street, Little Rock, AR, United States", "marker-size": "medium"}, "type": "Feature", "id": "43ab3e7d-1a0e-11eb-b73f-d0817ad9c765", "feature_type": "address"}, {"geometry": null, "properties": {"province": "US-AR", "marker-color": "#ff2600", "title": "Westmark (WESTM)", "country": "US", "locality": "Little Rock", "address": "4120 West Markham Street", "marker-size": "medium"}, "type": "Feature", "id": "43ab3f26-1a0e-11eb-a3fb-d0817ad9c765", "feature_type": "address"}, {"geometry": null, "properties": {"province": "US-AR", "marker-color": "#ff2600", "title": "Winston K. Shorey Building (SHOR)", "country": "US", "locality": "Little Rock", "address": "34.74905869272236, -92.32101730071008", "marker-size": "medium"}, "type": "Feature", "id": "43ab3fba-1a0e-11eb-82d1-d0817ad9c765", "feature_type": "address"}, {"geometry": null, "properties": {"province": "US-AR", "marker-color": "#ff2600", "title": "Winthrop P. Rockefeller Cancer Institute (WPRCI)", "country": "US", "locality": "Little Rock", "address": "400 Jack Stephens Drive, Little Rock, AR, United States", "marker-size": "medium"}, "type": "Feature", "id": "43ab446b-1a0e-11eb-b20f-d0817ad9c765", "feature_type": "address"}]}